{
    "data": [
        {
            "index": 1,
            "patientName": "첫 번째 확진자",
            "patientArea": "일산 강남",
            "contact": "45",
            "description": "중국인 35세 여자로 1월 19일에 입국해 우한시를 방문한 이력이 있다. 확진 날짜는 1월 20일로 접촉자는 약 45명으로 인천의료원에서 치료받고 있다.",
            "latlng": [
                {
                    "lat" : 37.478832,
                    "lng" : 126.668493
                }
            ]
        },
        {
            "index": 2,
            "patientName": "두 번째 확진자",
            "patientArea": "조사중",
            "contact": "75",
            "description": "한국인 55세 남자로 1월 22일에 입국해 우한시를 방문한 이력이 있다. 확진 날짜는 1월 24일로 접촉자는 약 75명으로 국립중앙의료원에서 치료받고 있다.",
            "latlng": [
                {
                    "lat" : 37.567328,
                    "lng" : 127.005664
                }
            ]
        },
        {
            "index": 3,
            "patientName": "세 번째 확진자",
            "patientArea": "조사중",
            "contact": "98",
            "description": "한국인 54세 남자로 1월 26일 입국해 우한시를 방문한 이력이 있다. 확진 날짜는 1월 26일로 접촉자는 약 98명으로 명지병원에서 치료받고 있다.",
            "latlng": [
                {
                    "lat" : 37.679623,
                    "lng" : 126.763727
                },
                {
                    "lat" : 37.503824,
                    "lng" : 127.037370
                },
                {
                    "lat" : 37.527133,
                    "lng" : 127.028336
                },
                {
                    "lat" : 37.503824,
                    "lng" : 127.037370
                },
                {
                    "lat" : 37.524426,
                    "lng" : 127.015406
                },
                {
                    "lat" : 37.503824,
                    "lng" : 127.037370
                },
                {
                    "lat" : 37.642355,
                    "lng" : 126.831221
                },
                {
                    "lat" : 37.503824,
                    "lng" : 127.037370
                }
            ]
        },
        {
            "index": 4,
            "patientName": "네 번째 확진자",
            "patientArea": "오산",
            "contact": "172",
            "description": "한국인 55세 남자로, 1월 20일 입국해 우한시를 방문한 이력이 있다. 확진 날짜는 1월 27일로 접촉자는 약 172명으로 분당 서울대병원에서 치료받고 있다.",
            "latlng": [
                {
                    "lat" : 37.079960,
                    "lng" : 127.057785
                },
                {
                    "lat" : 37.052114,
                    "lng" : 127.057449
                },
                {
                    "lat" : 37.351631,
                    "lng" : 127.123389
                }
            ]
        },
        {
            "index": 5,
            "patientName": "다섯 번째 확진자",
            "patientArea": "성동 성북구",
            "contact": "29",
            "description": "한국인 33세 남자로 1월 24일에 입국해 우한시를 방문한 이력이 있다. 확진 날짜는 1월 30일로 접촉자는 약 29명으로 서울의료원에서 치료받고 있다.",
            "latlng": [
                {
                    "lat" : 37.564679,
                    "lng" : 127.028893
                },
                {
                    "lat" : 37.603721,
                    "lng" : 127.014814
                },
                {
                    "lat" : 37.598854,
                    "lng" : 127.092525
                },
                {
                    "lat" : 37.606584,
                    "lng" : 127.092771
                },
                {
                    "lat" : 37.612755,
                    "lng" : 127.098078
                }
            ]
        },
        {
            "index": 6,
            "patientName": "여섯 번째 확진자",
            "patientArea": "혜화/격리중",
            "contact": "25",
            "description": "한국인 55세 남자로 우한시 방문 이력이 없다. 확진 날짜는 1월 30일로 접촉자는 약 25명으로 서울대병원에서 치료받고 있다.",
            "latlng": [
                {
                    "lat" : 37.578792,
                    "lng" : 126.997562
                },
                {
                    "lat" : 37.587454,
                    "lng" : 126.999825
                }

            ]
        },
        {
            "index": 7,
            "patientName": "일곱 번째 확진자",
            "patientArea": "조사중",
            "contact": "21",
            "description": "한국인 28세 남자로 우한시 방문 이력이 없다. 확진 날짜는 1월 30일로 접촉자는 약 21명으로 서울의료원에서 치료받고 있다.",
            "latlng": [
                {
                    "lat" : 37.612755,
                    "lng" : 127.098078
                }
            ]
        },
        {
            "index": 8,
            "patientName": "여덟 번째 확진자",
            "patientArea": "군산",
            "contact": "조사중",
            "description": "한국인 62세 여자로 1월23일에 입국해 우한시 방문이력이 있다. 확진 날짜는 1월 31일로 접촉자는 현재 조사중이며 원광대병원에서 치료받고 있다.",
            "latlng": [
                {
                    "lat" : 36.002832,
                    "lng" : 126.787189
                },
                {
                    "lat" : 35.954772,
                    "lng" : 126.712476
                },
                {
                    "lat" : 35.964525,
                    "lng" : 126.959594
                }
            ]
        },
        {
            "index": 9,
            "patientName": "아홉 번째 확진자",
            "patientArea": "조사중",
            "contact": "조사중",
            "description": "한국인 28세 여자로 우한시 방문 이력이 없다. 확진 날짜는 1월 31일로 접촉자는 현재 조사중이며 서울의료원에서 치료받고 있다.",
            "latlng": [
                {
                    "lat" : 37.678178,
                    "lng" : 126.812197
                },
                {
                    "lat" : 37.678178,
                    "lng" : 126.82197
                }
            ]
        },
        {   
            "index": 10,
            "patientName": "열 번째 확진자",
            "patientArea": "격리중",
            "contact": "조사중",
            "description": "한국인 52세 여자로 우한시 방문 이력이 없다. 확진 날짜는 1월 31일로 접촉자는 현재 조사중이며 서울대병원에서 치료받고 있다.",
            "latlng": [
                {
                    "lat" : 37.578792,
                    "lng" : 126.997562
                }
            ]
        },
        {
            "index": 11,
            "patientName": "열 한번째 확진자",
            "patientArea": "격리중",
            "contact": "조사중",
            "description": "한국인 25세 남자로 우한시 방문 이력이 없다. 확진 날짜는 1월 31일로 접촉자는 현재 조사중이며 서울대병원에서 치료받고 있다.",
            "latlng": [
                {
                    "lat" : 37.578792,
                    "lng" : 126.997562
                }
            ]
        },
        {
            "index": 12,
            "patientName": "열 두번째 확진자",
            "patientArea": "부천",
            "contact": "조사중",
            "description": "중국인 48세 남자로 우한시 방문 이력이 없다. 확진 날짜는 2월 1일로 접촉자는 현재 조사중이며 분당서울대병원에서 치료받고 있다.",
            "latlng": [
                {
                    "lat" : 37.504082,
                    "lng" : 126.756724
                },
                {
                    "lat" : 37.282829,
                    "lng" : 127.019845
                },
                {
                    "lat" : 37.351495,
                    "lng" : 127.123475
                },
                {
                    "lat" : 37.560287,
                    "lng" : 126.793616
                }
            ]
        },
        {
            "index": 13,
            "patientName": "열 세번째 확진자",
            "patientArea": "조사중",
            "contact": "조사중",
            "description": "한국인 28세 남자로로 우한시에서 1월 31일 임시항공편으로 1차 귀국한 입국 교민이다. 입국교민 검사과정에서 확인 되어 국립중앙의료원에 격리조치 되었다.",
            "latlng": [
                {
                    "lat" : 37.567328,
                    "lng" : 127.005664
                }
            ]
        },
        {
            "index": 14,
            "patientName": "열 네번째 확진자",
            "patientArea": "조사중",
            "contact": "조사중",
            "description": "중국인 48세 여자로 12번째 환자의 가족으로 자가격리 중이며, 역학조사가 진행중이다.",
            "latlng": [
                
            ]
        },
        {
            "index": 15,
            "patientName": "열 다섯번째 확진자",
            "patientArea": "조사중",
            "contact": "조사중",
            "description": "한국인 43세 남자로 1월 20일 우한시에서 입국하여 능동감시 중이던 대상자로, 2월 1일부터 경미한 감기증상을 호소해 실시한 검사 결과 확진되었다.",
            "latlng": [
                
            ]
        }

    ],
    "patientData": [
        {
            "patient": "15",
            "doubt": "359"
        }
    ]
}